City_ID,City,Lat,Lng,Max Temp,Humidity,Cloudiness,Wind Speed,Country,Date
0,waitangi,-43.9535,-176.5597,55.44,87,4,20.69,NZ,1699908586
1,tekkali,18.6167,84.2333,72.05,75,100,5.88,IN,1699908858
2,port-aux-francais,-49.35,70.2167,44.38,96,100,39.97,TF,1699908859
3,shimoda,34.6667,138.95,55.89,61,87,3.91,JP,1699908861
4,presidente olegario,-18.4178,-46.4181,88.72,22,60,2.66,BR,1699908862
5,ballina,-28.8667,153.5667,67.78,74,50,1.57,AU,1699908765
6,paciran,-6.8767,112.3761,80.2,83,52,4.5,ID,1699908863
7,mon,26.75,95.1,60.13,70,1,3.71,IN,1699908864
8,eagle point,42.4726,-122.8028,56.73,82,0,0.0,US,1699908865
9,touros,-5.1989,-35.4608,80.19,76,52,11.95,BR,1699908866
10,punta del este,-34.9667,-54.95,62.71,63,75,13.8,UY,1699908867
11,jesup,31.6074,-81.8854,63.95,77,100,4.61,US,1699908868
12,ulsteinvik,62.3432,5.8487,40.75,76,0,7.0,NO,1699908853
13,pathein,16.7833,94.7333,74.91,91,23,5.35,MM,1699908870
14,hajduszoboszlo,47.45,21.4,44.71,93,100,6.91,HU,1699908871
15,invercargill,-46.4,168.35,55.42,59,28,8.57,NZ,1699908872
16,puerto natales,-51.7236,-72.4875,36.05,93,75,19.57,CL,1699908873
17,afaahiti,-17.75,-149.2833,84.07,85,100,10.54,PF,1699908598
18,adamstown,-25.066,-130.1015,73.44,86,91,19.55,PN,1699908874
19,ushuaia,-54.8,-68.3,40.66,65,75,32.01,AR,1699908875
20,mejit,10.2753,170.8646,82.17,81,86,20.11,MH,1699908876
21,fale old settlement,-9.3852,-171.2468,82.99,80,100,11.99,TK,1699908877
22,whitehorse,60.7161,-135.0538,21.02,85,75,18.41,CA,1699908878
23,alofi,-19.0595,-169.9187,75.09,94,100,11.5,NU,1699908879
24,papatowai,-46.5619,169.4708,57.29,58,31,6.55,NZ,1699908880
25,port mathurin,-19.6833,63.4167,77.18,77,0,3.0,MU,1699908880
26,avarua,-21.2078,-159.775,75.25,64,20,10.36,CK,1699908881
27,sumbawa besar,-8.5,117.4333,74.91,91,77,4.32,ID,1699908883
28,hadibu,12.65,54.0333,79.47,85,97,9.37,YE,1699908884
29,terrace,54.5163,-128.6035,40.21,80,20,3.44,CA,1699908862
30,college,64.8569,-147.8028,26.55,90,100,5.75,US,1699908886
31,wailua homesteads,22.0669,-159.378,81.03,68,20,17.27,US,1699908887
32,belmonte,-15.8631,-38.8828,77.92,78,0,12.93,BR,1699908888
33,longyearbyen,78.2186,15.6401,13.84,67,75,8.05,SJ,1699908845
34,georgetown,5.4112,100.3354,77.02,94,20,0.0,MY,1699908693
35,little falls,40.869,-74.2082,49.17,54,100,13.8,US,1699908890
36,finike,36.295,30.1406,65.26,78,55,5.84,TR,1699908891
37,grytviken,-54.2811,-36.5092,36.75,97,100,6.78,GS,1699908892
38,poli,-3.3333,36.8,61.81,94,45,2.84,TZ,1699908892
39,talnakh,69.4865,88.3972,11.21,91,100,14.72,RU,1699908893
40,oranjemund,-28.55,16.4333,60.89,79,0,7.45,NA,1699908894
41,anadyr,64.75,177.4833,12.7,78,20,24.61,RU,1699908895
42,yellowknife,62.456,-114.3525,18.12,86,75,2.3,CA,1699908895
43,blackmans bay,-43.0167,147.3167,55.53,59,84,1.01,AU,1699908896
44,richards bay,-28.783,32.0377,64.2,91,100,8.99,ZA,1699908897
45,olonkinbyen,70.9221,-8.7187,27.54,70,100,6.51,SJ,1699908898
46,acapulco de juarez,16.8634,-99.8901,86.86,69,11,9.1,MX,1699908898
47,flying fish cove,-10.4217,105.6791,76.68,83,40,8.05,CX,1699908899
48,kenora,49.8167,-94.4337,40.17,65,75,9.22,CA,1699908900
49,edinburgh of the seven seas,-37.0676,-12.3116,56.73,81,8,24.9,SH,1699908901
50,ilulissat,69.2167,-51.1,23.02,63,75,16.11,GL,1699908901
51,vilyuysk,63.7553,121.6247,5.54,96,100,5.59,RU,1699908903
52,haiku-pauwela,20.9219,-156.3051,81.25,55,20,21.85,US,1699908903
53,luderitz,-26.6481,15.1594,69.04,49,0,11.54,NA,1699908905
54,punta arenas,-53.15,-70.9167,46.42,49,20,31.07,CL,1699908609
55,nantucket,41.2835,-70.0995,44.74,65,75,8.05,US,1699908907
56,bamboo flat,11.7,92.7167,80.69,89,75,9.22,IN,1699908908
57,nemuro,43.3236,145.575,37.85,69,27,17.58,JP,1699908909
58,hermanus,-34.4187,19.2345,60.91,78,3,20.09,ZA,1699908910
59,ribeira grande,38.5167,-28.7,61.2,88,75,8.05,PT,1699908911
60,albany,42.6001,-73.9662,41.52,64,99,1.01,US,1699908646
61,opuwo,-18.0607,13.84,80.08,23,100,7.36,NA,1699908913
62,stanley,54.868,-1.6985,47.79,86,40,23.02,GB,1699908914
63,bengkulu,-3.8004,102.2655,75.15,94,62,2.62,ID,1699908915
64,kodiak,57.79,-152.4072,42.31,42,0,17.27,US,1699908916
65,parras de la fuente,25.4167,-102.1833,56.3,83,100,4.83,MX,1699908917
66,suva,-18.1416,178.4415,76.48,94,100,10.36,FJ,1699908918
67,nagqu,31.5,92.0,19.04,38,57,2.53,CN,1699908919
68,puerto asis,0.5133,-76.5007,84.69,69,87,2.86,CO,1699908920
69,hailin,44.5833,129.4167,-0.38,98,28,2.53,CN,1699908921
70,kukawa,12.9234,13.5606,81.77,26,85,7.34,NG,1699908922
71,renfrew,55.872,-4.3925,48.24,93,100,5.75,GB,1699908923
72,uturoa,-16.7333,-151.4333,80.46,81,97,12.64,PF,1699908924
73,roxas,11.5853,122.7511,78.15,86,100,8.25,PH,1699908925
74,dolores,-36.3132,-57.6792,63.68,41,74,11.36,AR,1699908926
75,g'azalkent,41.5581,69.7708,44.04,31,0,8.1,UZ,1699908928
76,kasempa,-13.4584,25.8338,68.07,69,47,4.56,ZM,1699908929
77,paradip garh,20.3167,86.6167,73.42,71,99,8.46,IN,1699908930
78,perbaungan,3.5679,98.956,75.31,96,100,8.01,ID,1699908931
79,petropavlovsk-kamchatsky,53.0452,158.6483,26.46,74,0,28.01,RU,1699908932
80,fenoarivo be,-18.4333,46.5667,69.46,78,44,2.66,MG,1699908933
81,carutapera,-1.195,-46.02,80.02,75,26,8.14,BR,1699908934
82,sabang,5.8933,95.3214,80.73,82,100,15.7,ID,1699908935
83,krasnovishersk,60.4078,57.082,35.42,98,100,8.32,RU,1699908936
84,bethanie,-26.4833,17.15,79.84,9,1,5.68,NA,1699908937
85,remire-montjoly,4.9167,-52.2667,87.84,66,0,10.36,GF,1699908938
86,mwinilunga,-11.7358,24.4293,62.58,91,76,2.66,ZM,1699908939
87,asmara,15.3333,38.9333,58.1,82,15,1.28,ER,1699908940
88,almirante tamandare,-25.3247,-49.31,76.68,70,75,17.27,BR,1699908941
89,lihue,21.9789,-159.3672,81.64,68,20,17.27,US,1699908942
90,mitu,1.1983,-70.1733,81.52,89,77,1.48,CO,1699908943
91,talghar,43.3044,77.2328,24.85,93,20,2.24,KZ,1699908944
92,panshi,42.9422,126.0561,10.53,94,6,3.04,CN,1699908945
93,axim,4.8699,-2.2405,79.25,88,2,6.08,GH,1699908945
94,altpinar,39.2042,32.7478,50.74,92,100,11.34,TR,1699908947
95,saguenay,48.4168,-71.0657,28.08,73,75,6.91,CA,1699908911
96,pemangkat,1.1667,108.9667,77.97,90,100,4.7,ID,1699908948
97,hawaiian paradise park,19.5933,-154.9731,78.87,85,75,6.91,US,1699908949
98,guerrero negro,27.9769,-114.0611,79.74,28,7,4.34,MX,1699908950
99,conceicao da barra,-18.5933,-39.7322,77.72,80,4,14.16,BR,1699908951
100,mao,39.8885,4.2658,64.96,94,0,6.91,ES,1699908952
101,yanbu,24.0891,38.0637,82.44,65,0,3.44,SA,1699908953
102,colonia,50.9333,6.95,55.13,73,40,16.11,DE,1699908945
103,minab,27.1467,57.0801,76.75,46,45,2.86,IR,1699908955
104,thompson,55.7435,-97.8558,30.36,80,100,11.5,CA,1699908748
105,puerto ayora,-0.7393,-90.3518,74.55,97,75,8.99,EC,1699908956
106,jamestown,42.097,-79.2353,51.46,57,0,12.66,US,1699908711
107,morant bay,17.8815,-76.4093,91.71,74,8,11.52,JM,1699908833
108,archangelos,36.2149,28.1149,62.58,74,56,3.76,GR,1699908958
109,cannonvale,-20.2833,148.7,76.39,66,28,6.85,AU,1699908959
110,kahriz,34.3838,47.0553,48.27,53,0,0.0,IR,1699908960
111,kawambwa,-9.7915,29.0791,63.25,92,100,1.7,ZM,1699908961
112,tiksi,71.6872,128.8694,8.24,88,100,9.13,RU,1699908961
113,pamanukan,-6.2842,107.8106,80.94,79,96,4.27,ID,1699908963
114,kitimat,54.0524,-128.6534,40.68,63,56,1.99,CA,1699908964
115,cockburn town,21.4612,-71.1419,82.53,76,2,17.34,TC,1699908965
116,chonchi,-42.6128,-73.8092,53.11,52,55,9.46,CL,1699908966
117,luba,3.4568,8.5547,78.69,81,92,1.77,GQ,1699908966
118,east london,-33.0153,27.9116,61.32,76,99,9.86,ZA,1699908967
119,newman,37.3138,-121.0208,72.28,27,10,5.53,US,1699908968
120,jilin,43.0,126.0,10.47,94,5,3.4,CN,1699908969
121,chiungutwa,-10.8833,38.9833,77.16,82,86,3.38,TZ,1699908970
122,vallegrande,-18.4897,-64.1069,73.69,53,86,12.46,BO,1699908971
123,ekpoma,6.7421,6.139,73.13,92,100,2.98,NG,1699908972
124,west island,-12.1568,96.8225,78.78,78,100,8.05,CC,1699908973
125,puerto carreno,6.189,-67.4859,93.18,55,75,4.61,CO,1699908975
126,rongelap,11.1635,166.8941,82.35,85,100,19.26,MH,1699908976
127,peterhead,57.5058,-1.7981,46.8,85,100,29.46,GB,1699908977
128,margaret river,-33.95,115.0667,58.71,89,99,11.32,AU,1699908978
129,nar'yan-mar,67.6713,53.087,8.11,97,100,8.01,RU,1699908979
130,al jawf,29.5,38.75,72.28,40,73,1.3,SA,1699908729
131,iskateley,67.6803,53.1512,8.02,97,100,8.01,RU,1699908980
132,forster,-32.1667,152.5167,68.38,75,1,7.34,AU,1699908969
133,utrik,11.2278,169.8474,82.54,83,53,18.99,MH,1699908982
134,aasiaat,68.7098,-52.8699,11.46,86,100,4.68,GL,1699908983
135,iqaluit,63.7506,-68.5145,-0.31,70,20,5.75,CA,1699908984
136,kyren,51.6828,102.1408,20.95,85,100,1.01,RU,1699908984
137,constantia,44.1833,28.65,38.08,49,0,8.28,RO,1699908985
138,alta sierra,35.7291,-118.5495,62.11,23,100,4.85,US,1699908986
139,bilibino,68.0546,166.4372,-17.09,100,99,5.37,RU,1699908987
140,bethel,41.3712,-73.414,47.01,56,100,8.05,US,1699908988
141,prieska,-29.6641,22.7474,71.22,20,2,16.44,ZA,1699908989
142,revelstoke,50.9832,-118.2023,39.22,93,75,3.44,CA,1699908903
143,maun,-19.9833,23.4167,86.58,24,68,6.02,BW,1699908991
144,port lincoln,-34.7333,135.8667,57.29,84,100,10.6,AU,1699908992
145,nyandoma,61.669,40.1991,32.07,98,100,4.34,RU,1699908993
146,veraval,20.9,70.3667,79.09,33,100,8.52,IN,1699908994
147,hithadhoo,-0.6,73.0833,81.45,81,51,9.62,MV,1699908995
148,tolanaro,-25.0319,46.9987,70.29,88,7,5.21,MG,1699908997
149,urangan,-25.3,152.9,74.01,67,0,6.46,AU,1699908997
150,lata,40.1629,-8.3327,60.93,93,51,3.04,PT,1699908998
151,lerwick,60.1545,-1.1494,46.53,73,98,20.09,GB,1699909001
152,port alfred,-33.5906,26.891,61.18,86,97,3.0,ZA,1699909002
153,atafu village,-8.5421,-172.5159,85.03,74,96,8.52,TK,1699909003
154,talcahuano,-36.7167,-73.1167,58.68,63,20,20.71,CL,1699908916
155,miyako,39.6367,141.9525,40.87,82,59,4.36,JP,1699909004
156,mkushi,-13.6202,29.3939,74.53,51,94,6.35,ZM,1699909005
157,caleta de carquin,-11.0925,-77.6267,70.86,77,91,10.27,PE,1699909006
158,krivosheino,57.3431,83.9261,28.36,88,87,9.44,RU,1699909007
159,sferracavallo,42.726,12.0956,60.85,87,100,4.05,IT,1699909008
160,okakarara,-20.5833,17.4333,71.92,50,41,11.45,NA,1699909008
161,la ronge,55.1001,-105.2842,34.05,75,100,6.91,CA,1699909009
162,kabalo,-6.05,26.9167,69.89,99,100,3.04,CD,1699909010
163,turtas,58.9417,69.1325,31.71,97,100,8.19,RU,1699909011
164,hadgaon,19.5,77.6667,69.15,57,100,2.77,IN,1699909012
165,araguaina,-7.1911,-48.2072,93.42,28,6,6.02,BR,1699908906
166,puerto deseado,-47.7503,-65.8938,52.83,57,96,31.12,AR,1699909014
167,badger,64.8,-147.5333,25.05,91,100,5.75,US,1699908819
168,javea,38.7833,0.1667,66.94,65,4,1.01,ES,1699908725
169,lae,-6.7221,146.9847,75.87,88,100,2.1,PG,1699909016
170,rouissat,31.9243,5.3502,66.27,39,0,3.44,DZ,1699909016
171,callao,-12.0667,-77.15,70.09,73,40,12.66,PE,1699908726
172,portland,45.5234,-122.6762,56.98,82,75,3.44,US,1699908780
173,anapa,44.8908,37.3239,48.54,93,75,17.9,RU,1699909018
174,kuta,-8.7233,115.1723,80.55,94,75,2.3,ID,1699909019
175,hamilton,39.1834,-84.5333,66.65,31,0,11.5,US,1699909020
176,taunsa,30.7048,70.6505,67.46,36,3,1.99,PK,1699909021
177,carnarvon,-24.8667,113.6333,68.09,76,30,9.86,AU,1699909022
178,mugia,43.1041,-9.2179,65.91,98,100,23.55,ES,1699909023
179,broome,42.2506,-75.833,47.46,70,100,8.05,US,1699909024
180,pacific grove,36.6177,-121.9166,65.21,74,0,11.01,US,1699909025
181,bahawalpur,29.4,71.6833,68.13,37,86,4.09,PK,1699909026
182,vorgashor,67.5833,63.95,0.14,97,94,7.09,RU,1699909027
183,marsa alam,25.0757,34.8918,79.7,75,45,1.01,EG,1699909028
184,konarka,19.9,86.1167,70.2,70,100,7.99,IN,1699909029
185,lebu,-37.6167,-73.65,54.28,67,20,10.6,CL,1699909006
186,bel ombre,-4.6167,55.4167,82.24,78,40,8.05,SC,1699909031
187,imbituba,-28.24,-48.6703,71.6,97,100,0.51,BR,1699909031
188,peniche,39.3558,-9.3811,63.45,90,61,7.18,PT,1699909032
189,yuzhno-kurilsk,44.0306,145.8556,36.37,80,100,18.88,RU,1699908993
190,kailua-kona,19.6406,-155.9956,80.56,81,75,6.91,US,1699909034
191,ende,-8.8432,121.6623,78.35,87,81,1.5,ID,1699909035
192,kerikeri,-35.2268,173.9474,64.9,86,77,8.99,NZ,1699909036
193,knysna,-34.0363,23.0471,61.07,81,73,10.31,ZA,1699909037
194,frederico westphalen,-27.3592,-53.3944,68.31,97,100,3.8,BR,1699909038
195,codrington,-38.2667,141.9667,56.03,72,100,6.76,AU,1699909000
196,ilabaya,-17.4208,-70.5133,75.51,50,2,9.35,PE,1699909040
197,laojunmiao,39.8333,97.7333,30.13,39,55,8.28,CN,1699909041
198,ust-nera,64.5667,143.2,-24.0,99,70,4.38,RU,1699909015
199,asyut,27.181,31.1837,75.38,49,1,8.72,EG,1699909043
200,crane,31.3974,-102.3501,54.05,82,100,9.75,US,1699909043
201,udachny,66.4167,112.4,19.45,78,100,8.21,RU,1699908977
202,fort st. john,56.2499,-120.8529,22.89,93,100,13.8,CA,1699908886
203,wladyslawowo,54.7909,18.4009,40.93,84,94,10.96,PL,1699908928
204,vernon,50.2581,-119.2691,51.3,77,100,7.0,CA,1699909047
205,marsabit,2.3284,37.9899,66.87,83,66,9.69,KE,1699909048
206,walvis bay,-22.9575,14.5053,59.95,88,7,6.91,NA,1699909049
207,oriximina,-1.7656,-55.8661,93.47,36,99,7.36,BR,1699909050
208,meadow lake,34.8014,-106.5436,63.86,31,0,5.57,US,1699909051
209,birao,10.2849,22.7882,79.54,61,53,4.59,CF,1699909052
210,dingwall,57.5953,-4.4272,46.89,94,100,4.81,GB,1699909053
211,qaqortoq,60.7167,-46.0333,21.33,96,100,2.48,GL,1699909054
212,moengo,5.6167,-54.4,82.92,67,14,7.47,SR,1699909054
213,qamdo,31.1667,97.2333,21.58,53,0,4.21,CN,1699909055
214,klyuchi,52.2667,79.1667,40.05,90,100,10.22,RU,1699908977
215,arraial do cabo,-22.9661,-42.0278,84.16,89,75,11.5,BR,1699909057
216,yeppoon,-23.1333,150.7333,71.38,64,0,3.67,AU,1699909058
217,susuman,62.7833,148.1667,-27.56,99,80,0.31,RU,1699909059
218,slave lake,55.2834,-114.769,35.58,55,75,3.44,CA,1699909060
219,kiunga,-6.1219,141.2906,72.59,93,33,1.25,PG,1699909061
220,plymouth,41.8334,-70.8328,44.76,62,40,5.75,US,1699908962
221,alcala la real,37.4614,-3.923,59.22,61,82,2.95,ES,1699909062
222,san martin jilotepeque,14.7878,-90.7925,71.58,74,35,6.22,GT,1699909063
223,lompoc,34.6391,-120.4579,74.7,60,0,15.01,US,1699909064
224,bredasdorp,-34.5322,20.0403,60.42,78,3,17.05,ZA,1699908956
225,coquitlam,49.283,-122.7526,52.12,85,74,5.99,CA,1699909065
226,selkirk,50.1436,-96.8845,42.94,94,100,5.99,CA,1699909066
227,alesund,62.4723,6.1549,40.75,72,40,11.5,NO,1699909067
228,ta`u,-14.2336,-169.5144,82.08,83,89,8.68,AS,1699909069
229,chernushka,56.5072,56.0766,37.36,95,100,17.4,RU,1699909069
230,dudinka,69.4058,86.1778,11.62,90,100,16.15,RU,1699909070
231,palikir - national government center,6.9248,158.1611,74.14,94,100,3.44,FM,1699909071
232,lionel town,17.8101,-77.2406,91.29,70,18,12.91,JM,1699909072
233,sao vicente,-23.9631,-46.3919,105.98,54,40,9.22,BR,1699909073
234,kingston,17.997,-76.7936,91.24,66,20,23.02,JM,1699908905
235,hobyo,5.3505,48.5268,80.06,84,71,5.06,SO,1699909074
236,tambura,5.6,27.4667,73.78,85,100,3.42,SS,1699909075
237,tura,25.5198,90.2201,65.59,81,3,3.22,IN,1699909076
238,antsiranana,-12.2787,49.2917,77.31,81,100,8.03,MG,1699909076
239,enewetak,11.3474,162.3373,82.9,80,94,19.57,MH,1699908989
240,isafjordur,66.0755,-23.124,36.7,83,85,9.69,IS,1699909078
241,korla,41.7597,86.1469,40.6,62,69,6.4,CN,1699909078
242,sejenane,37.0572,9.2381,56.35,79,8,4.5,TN,1699909079
243,port elizabeth,-33.918,25.5701,61.09,84,40,6.91,ZA,1699909080
244,yanjiang,30.1211,104.6481,50.45,86,100,4.81,CN,1699909081
245,freetown,8.484,-13.2299,80.55,84,45,4.52,SL,1699908915
246,praia da vitoria,38.7333,-27.0667,59.76,94,75,4.25,PT,1699909083
247,vadso,70.0744,29.7487,14.16,85,40,17.27,NO,1699909083
248,miri,4.4148,114.0089,77.14,100,40,2.3,MY,1699909084
249,mount isa,-20.7333,139.5,64.17,82,3,0.0,AU,1699909085
250,campbell river,50.0163,-125.2446,47.73,93,75,3.44,CA,1699909062
251,fuling,29.7022,107.3919,50.97,86,95,1.99,CN,1699909087
252,vila velha,-20.3297,-40.2925,84.15,82,0,17.27,BR,1699909088
253,tazovsky,67.4667,78.7,0.7,92,6,10.8,RU,1699909089
254,hasaki,35.7333,140.8333,43.2,47,0,14.74,JP,1699909091
255,coquimbo,-29.9533,-71.3436,67.73,55,0,3.44,CL,1699908975
256,brisas de zicatela,15.8369,-97.0419,87.13,64,93,5.03,MX,1699909047
257,puerto santa,-8.9906,-78.6456,70.72,76,85,12.17,PE,1699909094
258,porto novo,6.4965,2.6036,80.42,85,3,5.73,BJ,1699909021
259,fuglafjordur,62.244,-6.814,45.07,80,40,23.98,FO,1699909096
260,kourou,5.1552,-52.6478,87.85,79,49,8.97,GF,1699909097
261,mansa,29.9833,75.3833,64.27,40,100,3.51,IN,1699909098
262,prince rupert,54.3161,-130.3201,44.29,75,75,2.3,CA,1699908971
263,langzhong,31.5504,105.9938,49.01,87,100,1.95,CN,1699909099
264,aykhal,66.0,111.5,12.96,95,100,11.14,RU,1699908968
265,kristiansund,63.1115,7.732,32.65,69,0,6.91,NO,1699909102
266,papao,-17.75,-149.55,85.68,89,100,12.17,PF,1699909102
267,cork,51.898,-8.4706,53.37,87,75,19.57,IE,1699909103
268,chateauneuf-sur-loire,47.8657,2.219,57.18,75,100,16.33,FR,1699909104
269,saipan,15.1355,145.701,83.1,83,20,14.97,MP,1699909105
270,ghat,24.9647,10.1728,69.24,31,0,6.22,LY,1699909106
271,prado,-17.3411,-39.2208,77.14,81,3,16.69,BR,1699908902
272,barnala,30.3833,75.55,64.85,44,98,4.23,IN,1699909107
273,saint-pierre,-21.3393,55.4781,71.56,68,20,8.05,RE,1699909108
274,yinchuan,38.4681,106.2731,34.05,22,0,1.39,CN,1699909109
275,mount pearl,47.5166,-52.7813,32.14,81,100,4.61,CA,1699909110
276,nova vicosa,-17.8919,-39.3719,77.7,79,15,16.8,BR,1699909110
277,kidal,18.4411,1.4078,79.66,12,0,10.4,ML,1699909111
278,smara,26.7384,-11.6719,82.27,16,7,9.19,EH,1699909112
279,margate,51.3813,1.3862,55.9,77,5,18.01,GB,1699909036
280,ardabil,38.2498,48.2933,40.55,65,0,4.61,IR,1699909115
281,igarka,67.4667,86.5833,12.88,91,98,17.09,RU,1699909116
282,luanda,-8.8368,13.2343,80.6,83,75,9.22,AO,1699909043
283,la passe,45.5549,-0.8967,62.83,94,100,15.9,FR,1699909003
284,amahai,-3.3333,128.9167,77.56,89,86,2.46,ID,1699909119
285,kapuskasing,49.4169,-82.4331,35.6,87,100,13.8,CA,1699909120
286,port douglas,-16.4833,145.4667,73.53,71,68,4.21,AU,1699908900
287,egilsstadir,65.2653,-14.3948,37.31,87,75,8.05,IS,1699909121
288,ulladulla,-35.35,150.4667,65.77,73,71,2.55,AU,1699909122
289,severo-yeniseyskiy,60.3725,93.0408,24.58,98,100,1.99,RU,1699909123
290,bundaberg north,-24.8551,152.3425,76.21,76,0,3.0,AU,1699909124
291,inhambane,-23.865,35.3833,72.93,69,92,13.58,MZ,1699909125
292,tournus,46.5676,4.9057,61.29,84,100,11.48,FR,1699909125
293,el calafate,-50.3408,-72.2768,43.05,43,2,22.03,AR,1699909126
294,sao jose da coroa grande,-8.8978,-35.1478,78.73,78,56,9.1,BR,1699909127
295,dunedin,-45.8742,170.5036,57.24,74,53,5.5,NZ,1699909128
296,pemba,-12.974,40.5178,77.7,100,0,10.36,MZ,1699909129
297,masuguru,-11.3667,38.4167,78.06,78,85,4.07,TZ,1699909131
298,piran,45.5278,13.5706,55.49,94,100,2.3,SI,1699909132
299,gadzhiyevo,69.2551,33.3362,17.06,94,100,2.04,RU,1699909133
300,manokwari,-0.8667,134.0833,78.55,77,99,4.97,ID,1699909012
301,oromocto,45.8351,-66.4792,34.72,72,100,3.0,CA,1699909135
302,kuala terengganu,5.3302,103.1408,78.75,94,40,2.3,MY,1699909038
303,kijang,35.2442,129.2139,33.53,45,0,4.21,KR,1699909136
304,mabama,-5.1333,32.5333,66.22,94,100,3.6,TZ,1699909137
305,arish,31.1316,33.7984,75.38,78,20,4.61,EG,1699909138
306,bahia honda,22.9036,-83.1592,82.04,72,52,13.87,CU,1699909139
307,los lunas,34.8062,-106.7334,64.87,31,0,3.0,US,1699909140
308,san ignacio rio muerto,27.4167,-110.2333,87.75,23,0,11.01,MX,1699909140
309,revel,43.4667,2.0,59.14,69,76,3.8,FR,1699909141
310,bechar,31.6167,-2.2167,70.12,23,0,2.3,DZ,1699909142
311,namibe,-15.1961,12.1522,73.51,67,100,9.08,AO,1699909010
312,cabo san lucas,22.8909,-109.9124,88.61,53,10,5.75,MX,1699909144
313,al lagowa,11.4,29.1333,86.47,31,26,6.8,SD,1699909145
314,kone,-21.0595,164.8658,75.29,50,1,4.56,NC,1699909146
315,sitka,57.0531,-135.33,39.09,70,100,0.0,US,1699909093
316,mytilene,39.11,26.5547,58.82,77,20,8.05,GR,1699909148
317,gros islet,14.0667,-60.95,85.87,70,40,9.22,LC,1699909149
318,la mira,18.035,-102.3266,86.29,65,42,7.56,MX,1699909150
319,puerto baquerizo moreno,-0.9,-89.6,81.59,65,75,11.5,EC,1699909152
320,den burg,53.0542,4.7972,55.98,75,75,31.07,NL,1699909153
321,okhotsk,59.3833,143.3,-0.56,81,98,14.23,RU,1699909154
322,nelson,-41.2833,173.2833,62.29,80,84,1.01,NZ,1699909155
323,zakamensk,50.3741,103.2863,17.26,82,100,2.24,RU,1699909156
324,victorica,-36.2151,-65.4359,73.22,22,0,8.43,AR,1699909157
325,bhamo,24.2667,97.2333,65.68,84,2,1.32,MM,1699909158
326,khandyga,62.6667,135.6,-27.18,100,63,2.39,RU,1699909159
327,bardai,11.65,7.2333,74.26,22,86,7.05,NG,1699909160
328,the bottom,17.6259,-63.2492,81.16,72,11,18.16,BQ,1699909164
329,tuy hoa,13.0833,109.3,77.22,92,100,9.17,VN,1699909067
330,itaueira,-7.6033,-43.0256,86.88,31,0,0.6,BR,1699909166
331,bandarbeyla,9.4942,50.8122,80.2,85,100,17.27,SO,1699909166
332,la foa,-21.7108,165.8276,72.57,53,3,4.07,NC,1699909167
333,faranah,10.0404,-10.7434,73.49,52,8,0.67,GN,1699909169
334,sarh,9.1429,18.3923,75.11,94,0,0.0,TD,1699909170
335,taroa,8.7058,171.2275,81.64,82,100,16.37,MH,1699909171
336,songea,-10.6833,35.65,68.58,80,25,3.02,TZ,1699909172
337,gorontalo,0.5412,123.0595,74.77,93,98,2.59,ID,1699909173
338,gembu,6.7,11.2667,63.05,84,97,2.33,NG,1699909173
339,agat village,13.3886,144.6585,83.34,86,40,8.05,GU,1699909174
340,palmer,42.1584,-72.3287,42.62,49,75,6.91,US,1699909175
341,belyy yar,53.6039,91.3903,12.09,85,81,0.0,RU,1699909176
342,saint-joseph,-21.3667,55.6167,70.47,84,75,5.03,RE,1699909177
343,al kharijah,25.4514,30.5464,75.63,51,0,9.69,EG,1699909178
344,celestun,20.8667,-90.4,83.55,71,42,13.98,MX,1699909179
345,ciudad bolivar,8.1222,-63.5497,91.56,46,33,10.92,VE,1699909180
346,fulton,33.7668,-84.4499,68.58,54,100,5.75,US,1699909181
347,port macquarie,-31.4333,152.9167,70.9,72,1,5.53,AU,1699909182
348,salalah,17.0151,54.0924,80.56,65,5,2.19,OM,1699909184
349,tegueste,28.5167,-16.3167,72.09,44,0,4.61,ES,1699909185
350,thames,-37.1333,175.5333,62.13,58,100,6.04,NZ,1699909186
351,gereida,11.2811,25.1414,87.62,31,44,3.8,SD,1699909187
352,mount gambier,-37.8333,140.7667,51.64,88,100,0.98,AU,1699909188
353,krasnyy chikoy,50.3643,108.7512,6.55,97,33,1.63,RU,1699909188
354,keflavik,64.0049,-22.5624,41.43,56,0,23.02,IS,1699909189
355,indre arna,60.4247,5.4764,40.66,76,6,5.88,NO,1699909190
356,cambria,35.5641,-121.0808,74.55,83,52,4.0,US,1699909191
357,lagoa,39.05,-27.9833,63.36,78,100,11.05,PT,1699909191
358,inderbor,48.55,51.7833,45.63,62,100,8.21,KZ,1699909192
359,sao joao da barra,-21.6403,-41.0511,84.29,86,100,12.15,BR,1699909193
360,kaohsiung,22.6163,120.3133,70.03,70,75,3.44,TW,1699909194
361,port blair,11.6667,92.75,80.64,89,75,9.22,IN,1699909194
362,salekhard,66.53,66.6019,-7.96,100,87,3.71,RU,1699909195
363,mpanda,-6.3655,31.0409,67.6,95,100,1.41,TZ,1699909196
364,poronaysk,49.2167,143.1167,14.36,90,43,7.54,RU,1699909197
365,eastham,41.8301,-69.9739,44.62,69,20,4.61,US,1699909068
366,oltinko'l,40.8011,72.1634,49.84,51,5,1.92,UZ,1699909198
367,smithers,54.7804,-127.1743,34.12,93,75,3.44,CA,1699909199
368,el sauzal de rodriguez,31.9,-116.6833,65.41,69,93,7.02,MX,1699909200
369,senanga,-16.1167,23.2667,78.24,39,29,2.24,ZM,1699909206
370,saint-leu,-21.15,55.2833,70.95,89,36,1.97,RE,1699909212
371,bocas del toro,9.3333,-82.25,82.06,76,100,4.0,PA,1699909212
372,nong ki,14.6868,102.538,72.93,94,100,8.88,TH,1699909219
373,san antonio de pale,-1.4014,5.6325,79.74,82,68,9.84,GQ,1699908960
374,micheweni,-4.9667,39.8333,81.61,80,6,5.12,TZ,1699909226
375,chibougamau,49.9168,-74.3659,26.22,86,100,9.22,CA,1699909232
376,chui,-33.6971,-53.4616,61.84,90,100,13.94,UY,1699909236
377,roma,43.2128,-75.4557,46.69,69,100,9.22,US,1699908980
378,aitape,-3.1374,142.3475,78.55,88,87,7.74,PG,1699909240
379,linhares,-19.3911,-40.0722,80.8,63,5,10.02,BR,1699909242
380,boli,45.7667,130.5167,0.01,98,16,2.57,CN,1699909243
381,tamboril,19.4854,-70.611,86.77,58,40,8.05,DO,1699909246
382,sturgis,41.7992,-85.4192,59.25,33,0,10.36,US,1699909079
383,mil'kovo,55.6078,37.7956,42.31,81,87,14.74,RU,1699909248
384,sinabang,2.4803,96.3801,77.92,87,100,3.09,ID,1699909250
385,salta,-24.7859,-65.4117,77.59,53,40,19.57,AR,1699909249
386,buka,40.8108,69.1986,46.87,39,0,4.63,UZ,1699908975
387,coruripe,-10.1256,-36.1756,76.53,76,6,7.99,BR,1699909253
388,ola,59.5833,151.2833,-6.86,76,92,7.7,RU,1699909253
389,san andres,12.5847,-81.7006,84.22,84,40,6.91,CO,1699909254
390,fayroz koh,34.5195,65.2509,37.26,39,4,1.83,AF,1699909255
391,barkhan,29.8977,69.5256,56.71,40,39,1.03,PK,1699909256
392,hassi messaoud,31.6804,6.0729,71.46,37,0,3.44,DZ,1699909257
393,envira,-7.3,-70.2167,87.53,61,100,4.79,BR,1699909258
394,meiktila,20.8667,95.8667,72.36,76,70,4.76,MM,1699909259
395,gueret,46.1667,1.8667,57.06,98,100,13.2,FR,1699909260
396,concordia,-31.393,-58.0209,64.78,95,98,11.99,AR,1699909202
397,chaihe,44.7667,129.7,-1.66,99,71,4.07,CN,1699909269
398,gallup,35.5281,-108.7426,62.24,17,4,9.73,US,1699909198
399,hotan,37.0997,79.9269,43.29,24,100,3.69,CN,1699909008
400,balykshi,47.0667,51.8667,39.2,81,0,2.24,KZ,1699909276
401,nizhnyaya tavda,57.6731,66.1725,35.13,92,100,8.66,RU,1699909279
402,sarmiento,-45.5882,-69.07,54.1,25,53,39.59,AR,1699909007
403,floro,61.5996,5.0328,42.76,61,4,10.36,NO,1699909065
404,kapa'a,22.0752,-159.319,82.38,69,100,5.01,US,1699909284
405,cidreira,-30.1811,-50.2056,69.46,96,100,1.95,BR,1699909285
406,happy valley-goose bay,53.3168,-60.3315,30.51,69,75,6.91,CA,1699909286
407,salamanca,40.8333,-6.0,51.58,91,9,5.19,ES,1699909155
408,cascais,38.6979,-9.4215,64.51,91,9,8.99,PT,1699909288
409,steinkjer,64.193,11.3851,25.74,80,98,3.4,NO,1699909290
410,maych'ew,12.7875,39.5422,56.1,82,29,6.62,ET,1699909291
411,cill airne,52.05,-9.5167,50.67,88,58,12.15,IE,1699909292
412,tottori,35.5,134.2333,49.87,76,100,4.94,JP,1699909293
413,labuan bajo,-8.4964,119.8877,77.95,84,96,3.71,ID,1699909294
414,minas de marcona,-15.2119,-75.1103,61.81,78,74,15.21,PE,1699909295
415,tubarjal,30.4999,38.216,72.34,33,44,10.27,SA,1699909297
416,kandalaksha,67.162,32.4123,13.55,97,84,6.93,RU,1699909298
417,caraballeda,10.6112,-66.8522,86.36,77,75,4.61,VE,1699909299
418,tucano,-10.9631,-38.7867,88.47,30,9,13.35,BR,1699909300
419,moa,20.6569,-74.9403,83.8,73,6,10.31,CU,1699909302
420,arawa,-6.2132,155.5367,79.0,82,100,4.61,PG,1699909303
421,abepura,-2.6333,140.5833,77.81,94,20,1.14,ID,1699909305
422,jestetten,47.65,8.5667,59.99,90,100,17.96,DE,1699909306
423,joao pinheiro,-17.7425,-46.1725,91.58,18,6,5.41,BR,1699909307
424,polyarnyy,69.1989,33.4478,17.82,93,100,1.86,RU,1699909310
425,kyzyl,51.7,94.45,14.02,80,100,1.01,RU,1699909311
426,greenville,35.6127,-77.3663,62.76,51,0,1.01,US,1699909243
427,ouadda,8.0777,22.4007,70.61,88,70,3.76,CF,1699909047
428,chaibasa,22.5667,85.8167,65.59,61,52,2.24,IN,1699909314
429,sainte-anne-des-monts,49.124,-66.4924,28.27,74,93,6.91,CA,1699909315
430,betio village,1.358,172.9211,82.44,76,94,7.11,KI,1699909316
431,faya-largeau,17.9257,19.1043,81.55,16,49,18.79,TD,1699909317
432,khuzdar,27.7384,66.6434,60.91,27,100,1.9,PK,1699909318
433,thaba-tseka,-29.522,28.6084,49.17,79,96,5.79,LS,1699909319
434,tindouf,27.6711,-8.1474,79.25,24,0,6.91,DZ,1699909320
435,dongning,44.0622,131.1207,10.78,96,24,3.29,CN,1699909321
436,hami,42.8,93.45,37.29,31,100,10.89,CN,1699909322
437,vanino,49.0869,140.2543,15.93,85,73,6.51,RU,1699909324
438,muroto-misakicho,33.2833,134.15,53.22,59,0,7.7,JP,1699909326
439,waingapu,-9.6567,120.2641,79.61,83,100,1.01,ID,1699909328
440,martapura,-3.4167,114.85,78.89,94,88,3.44,ID,1699909330
441,st. john's,47.5649,-52.7093,32.97,81,100,4.61,CA,1699909095
442,saltpond,5.2091,-1.0606,80.19,85,6,7.07,GH,1699909333
443,zhongshu,24.5167,103.7667,51.84,98,100,2.33,CN,1699909334
444,anadarko,35.0726,-98.2437,71.6,42,100,6.38,US,1699909232
445,baixa grande,-11.9597,-40.1681,86.32,25,1,3.91,BR,1699909336
446,daru,-9.0763,143.2092,76.66,76,59,4.38,PG,1699909337
447,kolonia,50.9333,6.95,54.97,73,40,16.11,DE,1699909338
448,castillos,-34.1667,-53.8333,59.74,90,100,14.12,UY,1699909339
449,cozumel,20.5083,-86.9458,82.94,94,80,10.0,MX,1699909204
450,new norfolk,-42.7826,147.0587,56.7,56,99,4.52,AU,1699909341
451,luwuk,-0.9516,122.7875,78.17,75,100,4.41,ID,1699909342
452,buala,-8.145,159.5921,81.55,76,98,4.83,SB,1699909343
453,tukrah,32.5341,20.5791,71.94,64,4,16.58,LY,1699909345
454,howrah,22.5892,88.3103,71.6,83,32,5.75,IN,1699909137
455,djamaa,33.5339,5.9931,64.98,48,0,2.51,DZ,1699909348
456,phan thiet,10.9333,108.1,75.54,81,94,3.2,VN,1699909350
457,mikuni,36.2171,136.1519,44.51,71,97,3.51,JP,1699909351
458,khorixas,-20.3667,14.9667,80.37,27,96,5.59,NA,1699909352
459,sangmelima,2.9333,11.9833,68.85,98,88,0.2,CM,1699909124
460,mata-utu,-13.2816,-176.1745,83.7,75,42,9.26,WF,1699909354
461,pangody,65.85,74.4859,3.97,97,9,8.01,RU,1699909355
462,taoudenni,22.6783,-3.9836,80.64,18,6,13.06,ML,1699909356
463,trairi,-3.2778,-39.2689,80.35,78,7,12.19,BR,1699909100
464,dhidhdhoo,6.8833,73.1,81.68,75,98,1.63,MV,1699909358
465,porto murtinho,-21.6989,-57.8825,108.1,20,66,12.53,BR,1699909359
466,dodge city,37.7528,-100.0171,68.25,31,0,11.01,US,1699909189
467,harper,4.375,-7.7169,76.84,92,4,3.6,LR,1699909361
468,acambay,19.9558,-99.8417,64.74,56,76,5.32,MX,1699909362
469,iquique,-20.2208,-70.1431,68.04,77,28,9.35,CL,1699909136
470,tofol,5.3248,163.0078,81.52,75,100,9.6,FM,1699909363
471,vorkuta,67.5,64.0,-0.83,98,91,6.15,RU,1699909065
472,makarov,48.6333,142.8,18.7,92,22,6.82,RU,1699909365
473,la sarre,48.8002,-79.1996,33.91,100,100,6.69,CA,1699909366
474,nizhniye vyazovyye,55.7988,48.5248,44.65,89,100,13.04,RU,1699909367
475,puerto ayacucho,5.6639,-67.6236,92.1,54,30,1.45,VE,1699909368
476,nova sintra,14.8667,-24.7167,74.55,72,61,15.37,CV,1699909368
477,sao tome,0.3365,6.7273,81.54,80,84,5.12,ST,1699909369
478,tayu,-6.5397,111.0518,80.02,81,88,4.9,ID,1699909370
479,astrakhan,46.3497,48.0408,44.47,93,58,0.0,RU,1699909185
480,markala,13.7021,-6.0659,82.4,11,5,9.51,ML,1699909372
481,aldan,58.6031,125.3894,1.31,95,92,6.42,RU,1699909373
482,launceston,-41.45,147.1667,55.8,71,100,0.0,AU,1699909246
483,tsafe,11.9553,6.9223,74.59,20,70,6.11,NG,1699909375
484,vichuga,57.2128,41.9301,38.26,81,100,13.35,RU,1699909376
485,corinto,37.9407,22.9573,59.9,76,60,0.83,GR,1699909376
486,pitalito,1.8497,-76.0479,75.76,77,24,3.65,CO,1699909116
487,sharlyk,52.9167,54.75,40.59,86,100,17.72,RU,1699909378
488,maragogi,-9.0122,-35.2225,78.48,78,34,9.51,BR,1699909379
489,mirador,-6.3708,-44.3631,92.68,29,23,6.15,BR,1699909380
490,morehead city,34.7229,-76.726,64.4,59,0,6.91,US,1699909150
491,kashary,49.04,41.0056,43.36,73,100,4.36,RU,1699909382
492,mujiayingzi,42.1167,118.7833,22.66,72,100,5.73,CN,1699909383
493,san juan de uraba,8.7592,-76.5297,83.84,86,97,4.61,CO,1699909384
494,ayorou,14.7308,0.9174,82.47,10,0,10.13,NE,1699909385
495,seydi,39.4816,62.9137,48.7,40,91,8.68,TM,1699909386
496,coahuayana de hidalgo,18.7,-103.6583,90.27,54,58,5.41,MX,1699909387
497,cestos city,5.46,-9.5828,80.26,86,40,5.28,LR,1699909388
498,inari,68.906,27.0288,10.6,99,74,3.2,FI,1699909389
499,adamovka,51.5223,59.9396,40.71,81,100,18.21,RU,1699909390
500,ancud,-41.8697,-73.8203,48.85,59,36,20.96,CL,1699909344
501,saint-philippe,-21.3585,55.7679,71.19,84,75,6.33,RE,1699909394
502,novodvinsk,64.4165,40.8122,25.79,91,100,7.83,RU,1699909396
503,la'ie,21.6477,-157.9253,85.96,65,98,5.01,US,1699909397
504,queenstown,-31.8976,26.8753,52.47,83,100,10.49,ZA,1699909364
505,lazaro cardenas,17.9583,-102.2,85.73,67,42,8.46,MX,1699909402
506,swakopmund,-22.6833,14.5333,59.85,88,12,3.42,NA,1699909403
507,nouadhibou,20.931,-17.0347,76.98,44,47,8.05,MR,1699909404
508,suluru,13.7,80.0167,78.66,77,99,7.36,IN,1699909405
509,richfield,44.8833,-93.283,58.48,35,20,8.05,US,1699909406
510,burang,30.25,81.1667,23.7,61,36,2.68,CN,1699909410
511,baghpat,28.95,77.2167,62.67,39,99,3.71,IN,1699909411
512,ji'an,27.1172,114.9793,50.07,61,100,2.51,CN,1699909412
513,xilin hot,43.9667,116.0333,10.72,82,8,5.84,CN,1699909413
514,celica,-4.1167,-79.95,73.62,54,100,5.01,EC,1699909357
515,kusong,39.9811,125.2447,29.86,50,100,2.06,KP,1699909416
516,villa gesell,-37.2639,-56.973,63.05,45,4,17.05,AR,1699909417
517,kalmunai,7.4167,81.8167,77.07,90,100,5.1,LK,1699909418
518,east ballina,-28.8667,153.5833,67.8,74,52,1.59,AU,1699909419
519,pallasovka,50.05,46.8833,43.56,82,90,8.21,RU,1699909420
520,la cruz,23.9167,-106.9,86.27,53,12,10.54,MX,1699909421
521,chlef,36.1652,1.3345,68.32,45,0,0.0,DZ,1699909231
522,alice springs,-23.7,133.8833,76.55,31,16,8.05,AU,1699909426
523,marovoay,-16.1,46.6333,78.73,76,0,1.28,MG,1699909426
524,preobrazheniye,42.9019,133.9064,28.42,61,0,7.16,RU,1699909427
525,urcos,-13.6861,-71.6228,69.69,60,86,8.39,PE,1699909428
526,howard springs,-12.497,131.047,80.51,87,28,3.11,AU,1699909429
527,toba,34.4833,136.85,51.8,70,75,17.4,JP,1699909430
528,zouerate,22.7187,-12.4521,80.67,16,54,8.19,MR,1699909430
529,sovetskaya gavan',48.9723,140.2878,16.11,81,56,8.88,RU,1699909432
530,okha,53.5739,142.9478,17.8,84,93,8.81,RU,1699909432
531,"laikit, laikit ii (dimembe)",1.4792,124.9735,72.45,88,20,1.14,ID,1699909433
532,usinsk,65.9939,57.5281,9.07,96,100,11.01,RU,1699909434
533,calama,-22.4667,-68.9333,79.29,12,0,25.32,CL,1699909151
534,qulsary,46.9531,54.0198,47.16,52,94,17.29,KZ,1699909435
535,hammerfest,70.6634,23.6821,28.85,80,20,5.75,NO,1699909436
536,mineiros,-17.5694,-52.5511,91.02,26,97,8.12,BR,1699909437
537,capitao poco,-1.7464,-47.0594,88.83,43,39,12.82,BR,1699909437
538,bajitpur,24.2167,90.95,69.6,80,21,3.31,BD,1699909438
539,preutesti,47.45,26.4167,44.51,66,27,3.96,RO,1699909439
540,fisterra,42.9049,-9.2629,65.75,97,100,25.14,ES,1699909440
541,akureyri,65.6835,-18.0878,35.53,80,40,0.0,IS,1699909440
542,baruun-urt,46.6806,113.2792,9.45,83,71,9.35,MN,1699909299
543,grantsville,40.5999,-112.4644,66.74,34,99,10.29,US,1699909443
544,sakon nakhon,17.3333,103.8333,68.63,79,23,6.85,TH,1699909444
545,belle fourche,44.6714,-103.8522,71.08,9,81,14.67,US,1699909445
546,guelmim,28.987,-10.0574,79.14,19,0,5.75,MA,1699909446
547,mana,5.6592,-53.7767,80.87,82,7,11.43,GF,1699909449
548,shibirghan,36.6676,65.7529,55.72,45,1,6.44,AF,1699909451
549,bumba,2.1833,22.4667,72.36,96,64,1.03,CD,1699909452
550,terra roxa,-23.8557,-50.0314,83.07,51,48,3.8,BR,1699909452
551,tsiombe,-25.3,45.4833,70.36,79,100,4.12,MG,1699909453
552,hailar,49.2,119.7,0.88,97,9,6.06,CN,1699909454
553,hilo,19.7297,-155.09,79.09,84,50,3.0,US,1699909246
554,mont-laurier,46.5501,-75.4993,28.02,95,100,5.53,CA,1699909369
555,yulinshi,38.2906,109.7494,31.06,35,0,1.21,CN,1699909457
556,inarajan village,13.2736,144.7484,84.34,89,69,17.9,GU,1699909458
557,bodo,67.28,14.405,27.77,54,0,19.57,NO,1699909459
558,lubang,13.8584,120.124,81.14,81,95,30.09,PH,1699909460
559,terbanggi besar,-4.8667,105.2333,75.79,93,72,5.59,ID,1699909461
560,beyneu,45.3167,55.2,47.95,42,52,20.0,KZ,1699909462
561,kurud,20.8322,81.7214,67.46,66,97,3.2,IN,1699909463
562,novaya igirma,57.1334,103.9112,27.54,96,99,7.87,RU,1699909464
563,valencia,39.3333,-0.8333,65.12,73,2,8.68,ES,1699909465
564,kavieng,-2.5744,150.7967,81.45,72,100,1.74,PG,1699909466
565,troitsko-pechorsk,62.7084,56.1964,28.69,96,100,11.99,RU,1699909467
566,tomatlan,19.9333,-105.25,90.97,50,9,6.11,MX,1699909468
